{
    "locations": [
        {
            "name": "محل أبوعيسي",
            "village": "قراقص",
            "address": "بجوار صيدليه د/وليد حجازي امام الفصل الواحد",
            "services": [
                "تجديد باقة",
                "كروت فكة",
                "دعم فني"
            ],
            "map_url": "https://maps.app.goo.gl/YkAHAKQnKGrVNn6K8",
            "hours": "من 1 مساءً إلى 11 مساءً"
        },
        {
            "name": "قرطام ماركت",
            "village": "قراقص",
            "address": "امام الإسعاف",
            "services": [
                "تجديد باقة",
                "كروت فكة"
            ],
            "map_url": "https://maps.app.goo.gl/Pm3c35NpQqLiidwc9",
            "hours": "من 8 صباحاً إلى 2 صباحاً"
        },
        {
            "name": "سوبر ماركت الهنا",
            "village": "قراقص",
            "address": "السويقه عند الابراج",
            "services": [
                "تجديد باقة",
                "كروت فكة"
            ],
            "map_url": "https://maps.app.goo.gl/kNTsXmdkwktNZFyf6",
            "hours": "طوال اليوم"
        },
        {
            "name": "سوبر ماركت ابو مندور",
            "village": "قراقص",
            "address": "امام محمصة الطاهرة",
            "services": [
                "تجديد باقة",
                "كروت فكة"
            ],
            "map_url": "https://maps.app.goo.gl/ZvT6bcSkien7K7HL7",
            "hours": "طوال اليوم"
        },
        {
            "name": "ماركت أم هشام",
            "village": "قراقص",
            "address": "امام المقابر",
            "services": [
                "تجديد باقة",
                "كروت فكة"
            ],
            "map_url": "https://maps.app.goo.gl/RuC4avfozWFFrwP6A",
            "hours": "من 8 صباحاً إلى 12 صباحاً"
        },
        {
            "name": "ماركت محمد فاروق الغرباوي",
            "village": "قراقص",
            "address": "حومه الحاج امام منزل العمده القديم",
            "services": [
                "تجديد باقة",
                "كروت فكة"
            ],
            "map_url": "https://maps.app.goo.gl/Z6PZWTymidKmi8Sz7",
            "hours": "من 8 صباحاً إلى 12 صباحاً"
        },
        {
            "name": "سنترال شبل",
            "village": "غربال",
            "address": "بجوار محول غربال امام ماركت ام بسمة",
            "services": [
                "تجديد باقة",
                "كروت فكة"
            ],
            "map_url": "https://maps.app.goo.gl/iEqy5ysXKwK538GG9",
            "hours": "من 10 صباحاً إلى 12 صباحاً"
        },
        {
            "name": "سوبر ماركت ابوانس",
            "village": "غربال",
            "address": "عند الجامع الشرقي بغربال",
            "services": [
                "تجديد باقة",
                "كروت فكة"
            ],
            "map_url": "https://maps.app.goo.gl/k6XsheAFWd4LPv948",
            "hours": "من 8 صباحاً إلى 2 صباحاً"
        },
        {
            "name": "سنترال محمد شوشو ابو يسري",
            "village": "غربال",
            "address": "بجوار المسجد الغربي",
            "services": [
                "تجديد باقة",
                "كروت فكة"
            ],
            "map_url": "https://maps.app.goo.gl/WuDdfBitjsQx5XYc9",
            "hours": "من 8 صباحاً إلى 2 صباحاً"
        },
        {
            "name": "ماركت محمد رمضان ابو اسماء",
            "village": "غربال",
            "address": "بجوار تموين نادر الدفراوي",
            "services": [
                "تجديد باقة",
                "كروت فكة"
            ],
            "map_url": "https://maps.app.goo.gl/PA7BynEwUnUQ3apU8",
            "hours": "من 8 صباحاً إلى 12 صباحاً"
        },
        {
            "name": "ماركت ايهاب الشرقاوي ",
            "village": "قراقص",
            "address": "امام مزلقان قراقص",
            "services": [
                "تجديد باقة",
                "كروت فكة"
            ],
            "map_url": "https://maps.app.goo.gl/hmF2bzUme6YMi9V17",
            "hours": "طوال اليوم"
        },
        {
            "name": "ماركت الحاجه ساميه",
            "village": "الحمامية",
            "address": "بجوار المزرعة",
            "services": [
                "تجديد باقة",
                "كروت فكة"
            ],
            "map_url": "https://maps.app.goo.gl/EpVUuBjxFbUjvaA3A",
            "hours": "من 1 مساءً إلى 8 صباحاً"
        },
        {
            "name": "ماركت محمد شعبان الخولي",
            "village": "الحمامية",
            "address": "بجوار محول الحمامية",
            "services": [
                "تجديد باقة",
                "كروت فكة"
            ],
            "map_url": "https://maps.app.goo.gl/bbBBVwZwvdsitcKS8",
            "hours": "من 8 صباحاً إلى 2 صباحاً"
        },
        {
            "name": "ماركت الشباسي",
            "village": "الحمامية",
            "address": "بجوار مركز الشباب",
            "services": [
                "تجديد باقة",
                "كروت فكة"
            ],
            "map_url": "https://maps.app.goo.gl/zjDvaEyHSwjyuJFx9",
            "hours": "من 8 صباحاً إلى 2 صباحاً"
        },
        {
            "name": "ماركت الشيخ كارم",
            "village": "الحمامية",
            "address": "بجوار الشيخ حامد المأذون",
            "services": [
                "تجديد باقة",
                "كروت فكة"
            ],
            "map_url": "https://maps.app.goo.gl/k5gnRAWXeo3bGv9Q6",
            "hours": "من 8 صباحاً إلى 2 صباحاً"
        },
        {
            "name": "اسامه عادل",
            "village": "عزبة زغلول",
            "address": "-",
            "services": [
                "تجديد باقة",
                "كروت فكة"
            ],
            "map_url": "https://maps.app.goo.gl/KUTECE8D67ZUydKs8",
            "hours": "من 8 صباحاً إلى 2 صباحاً"
        },
        {
            "name": "محمد الخولي البرنس",
            "village": "عزبة الكوم",
            "address": "-",
            "services": [
                "تجديد باقة",
                "كروت فكة"
            ],
            "map_url": "https://maps.app.goo.gl/YhaHMp4dYeAroGkx8?g_st=aw",
            "hours": "-"
        },
        {
            "name": "ارباح احمد عبدالباقي",
            "village": "غربال",
            "address": "-",
            "services": [
                "تجديد باقة",
                "كروت فكة"
            ],
            "map_url": "https://maps.app.goo.gl/dJajfZiiTtbXorAt9?g_st=aw",
            "hours": "-"
        },
        {
            "name": "رشوان فايد",
            "village": "قراقص",
            "address": "-",
            "services": [
                "تجديد باقة",
                "كروت فكة"
            ],
            "map_url": "https://maps.app.goo.gl/Z55gwtJsUJdTy1Qm9?g_st=aw",
            "hours": "-"
        }
    ]
}